nom_aeroport,nbr_piste,nbr_place_sol,temps_acces,duree_boucle,latitude,longitude
Londres Heathrow (LHR),3,10,3,4,51.4700,-0.4543
Paris Charles de Gaulle,4,11,3,2,49.0097, 2.5479
Francfort,4,11,3,2,50.0333,8.5706
Casablanca,2,11,2,2,33.3690,-7.5869
O'Hare de Chicago,5,12,3,2,41.9742, -87.9073
Dubai,2,11,2,2,25.2528,55.3644
Los Angeles,5,14,3,2,33.9416, -118.4085
Sao Paulo,2,11,2,2,-23.6245,-46.6559
Hong Kong,4,10,3,2,22.308,113.9185
Sydney,4,10,3,2,-33.9399,151.1753
